{
"type": "FeatureCollection",
"crs": { "type": "name", "properties": { "name": "urn:ogc:def:crs:OGC:1.3:CRS84" } },
"features": [
{ "type": "Feature", "properties": { "type": "start", "desc": "Hier geht's los", "name": "Start" }, "geometry": { "type": "Point", "coordinates": [ 6.740089171991044, 49.520221949015671 ] } },
{ "type": "Feature", "properties": { "type": "ziel", "desc": "Endlich geschafft!", "name": "Ziel" }, "geometry": { "type": "Point", "coordinates": [ 6.74092163697985, 49.519023585995527 ] } },
{ "type": "Feature", "properties": { "type": "wurmteller", "desc": "BANANAS!", "name": "Snacks" }, "geometry": { "type": "Point", "coordinates": [ 6.732772, 49.522673 ] } },
{ "type": "Feature", "properties": { "type": "wurmteller", "desc": "Obst macht froh", "name": "Snacks" }, "geometry": { "type": "Point", "coordinates": [ 6.729315, 49.517258 ] } },
{ "type": "Feature", "properties": { "type": "drums", "desc": "Hier spielt die Musik!", "name": "Musik" }, "geometry": { "type": "Point", "coordinates": [ 6.729954855122334, 49.520605980313455 ] } },
{ "type": "Feature", "properties": { "type": "wasser", "desc": "Ich han Doscht", "name": "Getränke" }, "geometry": { "type": "Point", "coordinates": [ 6.725711, 49.523203 ] } },
{ "type": "Feature", "properties": { "type": "wasser", "desc": "Ein letztes Schlückchen vor dem Ende", "name": "Getränke" }, "geometry": { "type": "Point", "coordinates": [ 6.73826, 49.518136 ] } },
{ "type": "Feature", "properties": { "type": "direction_left", "desc": "links weiter", "name": "Richtung" }, "geometry": { "type": "Point", "coordinates": [ 6.722966937017898, 49.523203435815809 ] } },
{ "type": "Feature", "properties": { "type": "direction_left", "desc": "links weiter", "name": "Richtung" }, "geometry": { "type": "Point", "coordinates": [ 6.736668392340931, 49.523148556822527 ] } },
{ "type": "Feature", "properties": { "type": "direction_right", "desc": "rechts weiter", "name": "Richtung" }, "geometry": { "type": "Point", "coordinates": [ 6.728473129343977, 49.517843587471823 ] } }
]
}
